header: 
  seq: 501
  stamp: 
    secs: 1529583954
    nsecs: 485014389
  frame_id: "world"
pose: 
  position: 
    x: -0.598547935486
    y: 0.206999108195
    z: 0.0110395792872
  orientation: 
    x: 0.0
    y: 0.0
    z: 0.0
    w: 1.0
---
header: 
  seq: 502
  stamp: 
    secs: 1529583954
    nsecs: 505194371
  frame_id: "world"
pose: 
  position: 
    x: -0.598547935486
    y: 0.206999108195
    z: 0.0110395792872
  orientation: 
    x: 0.0
    y: 0.0
    z: 0.0
    w: 1.0
---
header: 
  seq: 503
  stamp: 
    secs: 1529583954
    nsecs: 524327982
  frame_id: "world"
pose: 
  position: 
    x: -0.598551034927
    y: 0.207001909614
    z: 0.0110198911279
  orientation: 
    x: 0.0
    y: 0.0
    z: 0.0
    w: 1.0
---
header: 
  seq: 504
  stamp: 
    secs: 1529583954
    nsecs: 544524787
  frame_id: "world"
pose: 
  position: 
    x: -0.598517179489
    y: 0.206951856613
    z: 0.0110848154873
  orientation: 
    x: 0.0
    y: 0.0
    z: 0.0
    w: 1.0
---
header: 
  seq: 505
  stamp: 
    secs: 1529583954
    nsecs: 564715176
  frame_id: "world"
pose: 
  position: 
    x: -0.598438858986
    y: 0.207004696131
    z: 0.0111540546641
  orientation: 
    x: 0.0
    y: 0.0
    z: 0.0
    w: 1.0
---
header: 
  seq: 506
  stamp: 
    secs: 1529583954
    nsecs: 584955173
  frame_id: "world"
pose: 
  position: 
    x: -0.598473191261
    y: 0.207030713558
    z: 0.0111099146307
  orientation: 
    x: 0.0
    y: 0.0
    z: 0.0
    w: 1.0
---
header: 
  seq: 507
  stamp: 
    secs: 1529583954
    nsecs: 605176807
  frame_id: "world"
pose: 
  position: 
    x: -0.598524212837
    y: 0.206940814853
    z: 0.0111235240474
  orientation: 
    x: 0.0
    y: 0.0
    z: 0.0
    w: 1.0
---
header: 
  seq: 508
  stamp: 
    secs: 1529583954
    nsecs: 624389354
  frame_id: "world"
pose: 
  position: 
    x: -0.59853553772
    y: 0.206992819905
    z: 0.0110069010407
  orientation: 
    x: 0.0
    y: 0.0
    z: 0.0
    w: 1.0
---
header: 
  seq: 509
  stamp: 
    secs: 1529583954
    nsecs: 644637246
  frame_id: "world"
pose: 
  position: 
    x: -0.598526597023
    y: 0.20698672533
    z: 0.0110488161445
  orientation: 
    x: 0.0
    y: 0.0
    z: 0.0
    w: 1.0
---
header: 
  seq: 510
  stamp: 
    secs: 1529583954
    nsecs: 664883554
  frame_id: "world"
pose: 
  position: 
    x: -0.598538994789
    y: 0.206997007132
    z: 0.0110448468477
  orientation: 
    x: 0.0
    y: 0.0
    z: 0.0
    w: 1.0
---
header: 
  seq: 511
  stamp: 
    secs: 1529583954
    nsecs: 685048211
  frame_id: "world"
pose: 
  position: 
    x: -0.598538637161
    y: 0.20698659122
    z: 0.0110447453335
  orientation: 
    x: 0.0
    y: 0.0
    z: 0.0
    w: 1.0
---
header: 
  seq: 512
  stamp: 
    secs: 1529583954
    nsecs: 705240734
  frame_id: "world"
pose: 
  position: 
    x: -0.598512649536
    y: 0.206948429346
    z: 0.0111032444984
  orientation: 
    x: 0.0
    y: 0.0
    z: 0.0
    w: 1.0
---
header: 
  seq: 513
  stamp: 
    secs: 1529583954
    nsecs: 724373738
  frame_id: "world"
pose: 
  position: 
    x: -0.598508954048
    y: 0.206943839788
    z: 0.0110984547064
  orientation: 
    x: 0.0
    y: 0.0
    z: 0.0
    w: 1.0
---
header: 
  seq: 514
  stamp: 
    secs: 1529583954
    nsecs: 744566953
  frame_id: "world"
pose: 
  position: 
    x: -0.598506212234
    y: 0.206949084997
    z: 0.0111141018569
  orientation: 
    x: 0.0
    y: 0.0
    z: 0.0
    w: 1.0
---
header: 
  seq: 515
  stamp: 
    secs: 1529583954
    nsecs: 764758000
  frame_id: "world"
pose: 
  position: 
    x: -0.598540782928
    y: 0.207001805305
    z: 0.0110280103981
  orientation: 
    x: 0.0
    y: 0.0
    z: 0.0
    w: 1.0
---
header: 
  seq: 516
  stamp: 
    secs: 1529583954
    nsecs: 784971021
  frame_id: "world"
pose: 
  position: 
    x: -0.598526477814
    y: 0.207005679607
    z: 0.0110174622387
  orientation: 
    x: 0.0
    y: 0.0
    z: 0.0
    w: 1.0
---
header: 
  seq: 517
  stamp: 
    secs: 1529583954
    nsecs: 805166100
  frame_id: "world"
pose: 
  position: 
    x: -0.598543047905
    y: 0.206993728876
    z: 0.0110039897263
  orientation: 
    x: 0.0
    y: 0.0
    z: 0.0
    w: 1.0
---
header: 
  seq: 518
  stamp: 
    secs: 1529583954
    nsecs: 825369630
  frame_id: "world"
pose: 
  position: 
    x: -0.598543047905
    y: 0.206993728876
    z: 0.0110039897263
  orientation: 
    x: 0.0
    y: 0.0
    z: 0.0
    w: 1.0
---
header: 
  seq: 519
  stamp: 
    secs: 1529583954
    nsecs: 844520609
  frame_id: "world"
pose: 
  position: 
    x: -0.598512172699
    y: 0.20692370832
    z: 0.0110793393105
  orientation: 
    x: 0.0
    y: 0.0
    z: 0.0
    w: 1.0
---
header: 
  seq: 520
  stamp: 
    secs: 1529583954
    nsecs: 864707104
  frame_id: "world"
pose: 
  position: 
    x: -0.59855222702
    y: 0.20700520277
    z: 0.0110069960356
  orientation: 
    x: 0.0
    y: 0.0
    z: 0.0
    w: 1.0
---
header: 
  seq: 521
  stamp: 
    secs: 1529583954
    nsecs: 884861191
  frame_id: "world"
pose: 
  position: 
    x: -0.598524212837
    y: 0.207002654672
    z: 0.0110433660448
  orientation: 
    x: 0.0
    y: 0.0
    z: 0.0
    w: 1.0
---
header: 
  seq: 522
  stamp: 
    secs: 1529583954
    nsecs: 905047718
  frame_id: "world"
pose: 
  position: 
    x: -0.598444104195
    y: 0.20697376132
    z: 0.0111812958494
  orientation: 
    x: 0.0
    y: 0.0
    z: 0.0
    w: 1.0
---
header: 
  seq: 523
  stamp: 
    secs: 1529583954
    nsecs: 925253457
  frame_id: "world"
pose: 
  position: 
    x: -0.59853386879
    y: 0.206998229027
    z: 0.0110450852662
  orientation: 
    x: 0.0
    y: 0.0
    z: 0.0
    w: 1.0
---
header: 
  seq: 524
  stamp: 
    secs: 1529583954
    nsecs: 944544642
  frame_id: "world"
pose: 
  position: 
    x: -0.598471641541
    y: 0.207054153085
    z: 0.0111403297633
  orientation: 
    x: 0.0
    y: 0.0
    z: 0.0
    w: 1.0
---
header: 
  seq: 525
  stamp: 
    secs: 1529583954
    nsecs: 964761622
  frame_id: "world"
pose: 
  position: 
    x: -0.598518252373
    y: 0.206973999739
    z: 0.011023690924
  orientation: 
    x: 0.0
    y: 0.0
    z: 0.0
    w: 1.0
---
header: 
  seq: 526
  stamp: 
    secs: 1529583954
    nsecs: 984969927
  frame_id: "world"
pose: 
  position: 
    x: -0.598440766335
    y: 0.2069658041
    z: 0.0111911054701
  orientation: 
    x: 0.0
    y: 0.0
    z: 0.0
    w: 1.0
---
header: 
  seq: 527
  stamp: 
    secs: 1529583955
    nsecs:   5185601
  frame_id: "world"
pose: 
  position: 
    x: -0.59849011898
    y: 0.206949785352
    z: 0.0111425695941
  orientation: 
    x: 0.0
    y: 0.0
    z: 0.0
    w: 1.0
---
header: 
  seq: 528
  stamp: 
    secs: 1529583955
    nsecs:  24332494
  frame_id: "world"
pose: 
  position: 
    x: -0.598536610603
    y: 0.206968516111
    z: 0.0110226301476
  orientation: 
    x: 0.0
    y: 0.0
    z: 0.0
    w: 1.0
---
header: 
  seq: 529
  stamp: 
    secs: 1529583955
    nsecs:  44526926
  frame_id: "world"
pose: 
  position: 
    x: -0.598536610603
    y: 0.206968516111
    z: 0.0110226301476
  orientation: 
    x: 0.0
    y: 0.0
    z: 0.0
    w: 1.0
---
header: 
  seq: 530
  stamp: 
    secs: 1529583955
    nsecs:  64717122
  frame_id: "world"
pose: 
  position: 
    x: -0.598536610603
    y: 0.206968516111
    z: 0.0110226301476
  orientation: 
    x: 0.0
    y: 0.0
    z: 0.0
    w: 1.0
---
header: 
  seq: 531
  stamp: 
    secs: 1529583955
    nsecs:  84908681
  frame_id: "world"
pose: 
  position: 
    x: -0.598492264748
    y: 0.207057312131
    z: 0.0111321695149
  orientation: 
    x: 0.0
    y: 0.0
    z: 0.0
    w: 1.0
---
header: 
  seq: 532
  stamp: 
    secs: 1529583955
    nsecs: 105111219
  frame_id: "world"
pose: 
  position: 
    x: -0.598536968231
    y: 0.206986546516
    z: 0.0110220024362
  orientation: 
    x: 0.0
    y: 0.0
    z: 0.0
    w: 1.0
---
header: 
  seq: 533
  stamp: 
    secs: 1529583955
    nsecs: 125304286
  frame_id: "world"
pose: 
  position: 
    x: -0.59855401516
    y: 0.206998556852
    z: 0.0110211633146
  orientation: 
    x: 0.0
    y: 0.0
    z: 0.0
    w: 1.0
---
header: 
  seq: 534
  stamp: 
    secs: 1529583955
    nsecs: 144500234
  frame_id: "world"
pose: 
  position: 
    x: -0.598473310471
    y: 0.207042232156
    z: 0.011109101586
  orientation: 
    x: 0.0
    y: 0.0
    z: 0.0
    w: 1.0
---
header: 
  seq: 535
  stamp: 
    secs: 1529583955
    nsecs: 164701900
  frame_id: "world"
pose: 
  position: 
    x: -0.598543524742
    y: 0.206999182701
    z: 0.01100973133
  orientation: 
    x: 0.0
    y: 0.0
    z: 0.0
    w: 1.0
---
header: 
  seq: 536
  stamp: 
    secs: 1529583955
    nsecs: 184905953
  frame_id: "world"
pose: 
  position: 
    x: -0.598537683487
    y: 0.206998899579
    z: 0.0110321827233
  orientation: 
    x: 0.0
    y: 0.0
    z: 0.0
    w: 1.0
---
header: 
  seq: 537
  stamp: 
    secs: 1529583955
    nsecs: 205119506
  frame_id: "world"
pose: 
  position: 
    x: -0.598526954651
    y: 0.207018464804
    z: 0.0110663790256
  orientation: 
    x: 0.0
    y: 0.0
    z: 0.0
    w: 1.0
---
header: 
  seq: 538
  stamp: 
    secs: 1529583955
    nsecs: 225333767
  frame_id: "world"
pose: 
  position: 
    x: -0.598539471626
    y: 0.206979870796
    z: 0.0110319554806
  orientation: 
    x: 0.0
    y: 0.0
    z: 0.0
    w: 1.0
---
header: 
  seq: 539
  stamp: 
    secs: 1529583955
    nsecs: 244538422
  frame_id: "world"
pose: 
  position: 
    x: -0.598541021347
    y: 0.207007408142
    z: 0.0110545009375
  orientation: 
    x: 0.0
    y: 0.0
    z: 0.0
    w: 1.0
---
header: 
  seq: 540
  stamp: 
    secs: 1529583955
    nsecs: 264754648
  frame_id: "world"
pose: 
  position: 
    x: -0.598532438278
    y: 0.206933170557
    z: 0.0111329313368
  orientation: 
    x: 0.0
    y: 0.0
    z: 0.0
    w: 1.0
---
header: 
  seq: 541
  stamp: 
    secs: 1529583955
    nsecs: 284996026
  frame_id: "world"
pose: 
  position: 
    x: -0.598548173904
    y: 0.206989258528
    z: 0.0110536292195
  orientation: 
    x: 0.0
    y: 0.0
    z: 0.0
    w: 1.0
---
header: 
  seq: 542
  stamp: 
    secs: 1529583955
    nsecs: 305184248
  frame_id: "world"
pose: 
  position: 
    x: -0.598528504372
    y: 0.206908881664
    z: 0.0110768824816
  orientation: 
    x: 0.0
    y: 0.0
    z: 0.0
    w: 1.0
---
header: 
  seq: 543
  stamp: 
    secs: 1529583955
    nsecs: 325375150
  frame_id: "world"
pose: 
  position: 
    x: -0.598528504372
    y: 0.206944525242
    z: 0.0111165056005
  orientation: 
    x: 0.0
    y: 0.0
    z: 0.0
    w: 1.0
---
header: 
  seq: 544
  stamp: 
    secs: 1529583955
    nsecs: 344565953
  frame_id: "world"
pose: 
  position: 
    x: -0.598554730415
    y: 0.206977307796
    z: 0.0110188014805
  orientation: 
    x: 0.0
    y: 0.0
    z: 0.0
    w: 1.0
---
header: 
  seq: 545
  stamp: 
    secs: 1529583955
    nsecs: 364765373
  frame_id: "world"
pose: 
  position: 
    x: -0.598459601402
    y: 0.206980198622
    z: 0.0112104453146
  orientation: 
    x: 0.0
    y: 0.0
    z: 0.0
    w: 1.0
---
header: 
  seq: 546
  stamp: 
    secs: 1529583955
    nsecs: 384959279
  frame_id: "world"
pose: 
  position: 
    x: -0.598514318466
    y: 0.206955701113
    z: 0.0111121591181
  orientation: 
    x: 0.0
    y: 0.0
    z: 0.0
    w: 1.0
---
header: 
  seq: 547
  stamp: 
    secs: 1529583955
    nsecs: 405156926
  frame_id: "world"
pose: 
  position: 
    x: -0.598476171494
    y: 0.207039400935
    z: 0.0111295925453
  orientation: 
    x: 0.0
    y: 0.0
    z: 0.0
    w: 1.0
---
header: 
  seq: 548
  stamp: 
    secs: 1529583955
    nsecs: 424358404
  frame_id: "world"
pose: 
  position: 
    x: -0.598559141159
    y: 0.206986829638
    z: 0.0110239963979
  orientation: 
    x: 0.0
    y: 0.0
    z: 0.0
    w: 1.0
---
header: 
  seq: 549
  stamp: 
    secs: 1529583955
    nsecs: 444583699
  frame_id: "world"
pose: 
  position: 
    x: -0.598540425301
    y: 0.207002848387
    z: 0.0110308937728
  orientation: 
    x: 0.0
    y: 0.0
    z: 0.0
    w: 1.0
---
header: 
  seq: 550
  stamp: 
    secs: 1529583955
    nsecs: 464807438
  frame_id: "world"
pose: 
  position: 
    x: -0.598502993584
    y: 0.206938713789
    z: 0.0111101623625
  orientation: 
    x: 0.0
    y: 0.0
    z: 0.0
    w: 1.0
---
header: 
  seq: 551
  stamp: 
    secs: 1529583955
    nsecs: 485012574
  frame_id: "world"
pose: 
  position: 
    x: -0.598502993584
    y: 0.206938713789
    z: 0.0111101623625
  orientation: 
    x: 0.0
    y: 0.0
    z: 0.0
    w: 1.0
---
header: 
  seq: 552
  stamp: 
    secs: 1529583955
    nsecs: 505206876
  frame_id: "world"
pose: 
  position: 
    x: -0.598502993584
    y: 0.206938713789
    z: 0.0111101623625
  orientation: 
    x: 0.0
    y: 0.0
    z: 0.0
    w: 1.0
---
header: 
  seq: 553
  stamp: 
    secs: 1529583955
    nsecs: 524381995
  frame_id: "world"
pose: 
  position: 
    x: -0.598502993584
    y: 0.206938713789
    z: 0.0111101623625
  orientation: 
    x: 0.0
    y: 0.0
    z: 0.0
    w: 1.0
---
header: 
  seq: 554
  stamp: 
    secs: 1529583955
    nsecs: 544584636
  frame_id: "world"
pose: 
  position: 
    x: -0.598518848419
    y: 0.206925362349
    z: 0.0110825803131
  orientation: 
    x: 0.0
    y: 0.0
    z: 0.0
    w: 1.0
---
header: 
  seq: 555
  stamp: 
    secs: 1529583955
    nsecs: 564786111
  frame_id: "world"
pose: 
  position: 
    x: -0.598505616188
    y: 0.206938758492
    z: 0.0110907759517
  orientation: 
    x: 0.0
    y: 0.0
    z: 0.0
    w: 1.0
---
header: 
  seq: 556
  stamp: 
    secs: 1529583955
    nsecs: 584985453
  frame_id: "world"
pose: 
  position: 
    x: -0.598547101021
    y: 0.206975966692
    z: 0.0110064838082
  orientation: 
    x: 0.0
    y: 0.0
    z: 0.0
    w: 1.0
---
header: 
  seq: 557
  stamp: 
    secs: 1529583955
    nsecs: 605228830
  frame_id: "world"
pose: 
  position: 
    x: -0.598544597626
    y: 0.206979006529
    z: 0.011036157608
  orientation: 
    x: 0.0
    y: 0.0
    z: 0.0
    w: 1.0
---
header: 
  seq: 558
  stamp: 
    secs: 1529583955
    nsecs: 624384388
  frame_id: "world"
pose: 
  position: 
    x: -0.598560929298
    y: 0.206974029541
    z: 0.0110178245232
  orientation: 
    x: 0.0
    y: 0.0
    z: 0.0
    w: 1.0
---
header: 
  seq: 559
  stamp: 
    secs: 1529583955
    nsecs: 644585488
  frame_id: "world"
pose: 
  position: 
    x: -0.598551511765
    y: 0.206983149052
    z: 0.0110562248155
  orientation: 
    x: 0.0
    y: 0.0
    z: 0.0
    w: 1.0
---
header: 
  seq: 560
  stamp: 
    secs: 1529583955
    nsecs: 664784855
  frame_id: "world"
pose: 
  position: 
    x: -0.59853208065
    y: 0.206968411803
    z: 0.0110459756106
  orientation: 
    x: 0.0
    y: 0.0
    z: 0.0
    w: 1.0
---
header: 
  seq: 561
  stamp: 
    secs: 1529583955
    nsecs: 684999544
  frame_id: "world"
pose: 
  position: 
    x: -0.598511219025
    y: 0.206914484501
    z: 0.0111165400594
  orientation: 
    x: 0.0
    y: 0.0
    z: 0.0
    w: 1.0
---
header: 
  seq: 562
  stamp: 
    secs: 1529583955
    nsecs: 705197327
  frame_id: "world"
pose: 
  position: 
    x: -0.59844827652
    y: 0.207005113363
    z: 0.0112238582224
  orientation: 
    x: 0.0
    y: 0.0
    z: 0.0
    w: 1.0
---
header: 
  seq: 563
  stamp: 
    secs: 1529583955
    nsecs: 724344117
  frame_id: "world"
pose: 
  position: 
    x: -0.598441720009
    y: 0.206959038973
    z: 0.0111991493031
  orientation: 
    x: 0.0
    y: 0.0
    z: 0.0
    w: 1.0
---
header: 
  seq: 564
  stamp: 
    secs: 1529583955
    nsecs: 744554165
  frame_id: "world"
pose: 
  position: 
    x: -0.598520636559
    y: 0.206989452243
    z: 0.0110495993868
  orientation: 
    x: 0.0
    y: 0.0
    z: 0.0
    w: 1.0
---
header: 
  seq: 565
  stamp: 
    secs: 1529583955
    nsecs: 764744679
  frame_id: "world"
pose: 
  position: 
    x: -0.598509788513
    y: 0.20691332221
    z: 0.0111235706136
  orientation: 
    x: 0.0
    y: 0.0
    z: 0.0
    w: 1.0
---
header: 
  seq: 566
  stamp: 
    secs: 1529583955
    nsecs: 784979681
  frame_id: "world"
pose: 
  position: 
    x: -0.598545312881
    y: 0.206996589899
    z: 0.0110874064267
  orientation: 
    x: 0.0
    y: 0.0
    z: 0.0
    w: 1.0
---
header: 
  seq: 567
  stamp: 
    secs: 1529583955
    nsecs: 805171301
  frame_id: "world"
pose: 
  position: 
    x: -0.598502278328
    y: 0.207015424967
    z: 0.0111586833373
  orientation: 
    x: 0.0
    y: 0.0
    z: 0.0
    w: 1.0
---
header: 
  seq: 568
  stamp: 
    secs: 1529583955
    nsecs: 825403163
  frame_id: "world"
pose: 
  position: 
    x: -0.598546504974
    y: 0.206978842616
    z: 0.0110521242023
  orientation: 
    x: 0.0
    y: 0.0
    z: 0.0
    w: 1.0
---
header: 
  seq: 569
  stamp: 
    secs: 1529583955
    nsecs: 844681447
  frame_id: "world"
pose: 
  position: 
    x: -0.598525762558
    y: 0.206984311342
    z: 0.011051482521
  orientation: 
    x: 0.0
    y: 0.0
    z: 0.0
    w: 1.0
---
header: 
  seq: 570
  stamp: 
    secs: 1529583955
    nsecs: 864878927
  frame_id: "world"
pose: 
  position: 
    x: -0.598499894142
    y: 0.206906691194
    z: 0.0110909538344
  orientation: 
    x: 0.0
    y: 0.0
    z: 0.0
    w: 1.0
---
header: 
  seq: 571
  stamp: 
    secs: 1529583955
    nsecs: 885078499
  frame_id: "world"
pose: 
  position: 
    x: -0.598505735397
    y: 0.206909254193
    z: 0.0111021902412
  orientation: 
    x: 0.0
    y: 0.0
    z: 0.0
    w: 1.0
---
header: 
  seq: 572
  stamp: 
    secs: 1529583955
    nsecs: 905293249
  frame_id: "world"
pose: 
  position: 
    x: -0.598522186279
    y: 0.206992045045
    z: 0.0110755302012
  orientation: 
    x: 0.0
    y: 0.0
    z: 0.0
    w: 1.0
---
header: 
  seq: 573
  stamp: 
    secs: 1529583955
    nsecs: 924485568
  frame_id: "world"
pose: 
  position: 
    x: -0.598522186279
    y: 0.206992045045
    z: 0.0110755302012
  orientation: 
    x: 0.0
    y: 0.0
    z: 0.0
    w: 1.0
---
header: 
  seq: 574
  stamp: 
    secs: 1529583955
    nsecs: 944694466
  frame_id: "world"
pose: 
  position: 
    x: -0.598489046097
    y: 0.206999316812
    z: 0.0111546600237
  orientation: 
    x: 0.0
    y: 0.0
    z: 0.0
    w: 1.0
---
header: 
  seq: 575
  stamp: 
    secs: 1529583955
    nsecs: 964924416
  frame_id: "world"
pose: 
  position: 
    x: -0.598463535309
    y: 0.207016527653
    z: 0.0111676603556
  orientation: 
    x: 0.0
    y: 0.0
    z: 0.0
    w: 1.0
---
header: 
  seq: 576
  stamp: 
    secs: 1529583955
    nsecs: 985129279
  frame_id: "world"
pose: 
  position: 
    x: -0.598477959633
    y: 0.207015141845
    z: 0.0111505063251
  orientation: 
    x: 0.0
    y: 0.0
    z: 0.0
    w: 1.0
---
header: 
  seq: 577
  stamp: 
    secs: 1529583956
    nsecs:   5331537
  frame_id: "world"
pose: 
  position: 
    x: -0.598520159721
    y: 0.206912398338
    z: 0.011124657467
  orientation: 
    x: 0.0
    y: 0.0
    z: 0.0
    w: 1.0
---
header: 
  seq: 578
  stamp: 
    secs: 1529583956
    nsecs:  24524322
  frame_id: "world"
pose: 
  position: 
    x: -0.598520159721
    y: 0.206912398338
    z: 0.011124657467
  orientation: 
    x: 0.0
    y: 0.0
    z: 0.0
    w: 1.0
---
header: 
  seq: 579
  stamp: 
    secs: 1529583956
    nsecs:  44708321
  frame_id: "world"
pose: 
  position: 
    x: -0.598520159721
    y: 0.206912398338
    z: 0.011124657467
  orientation: 
    x: 0.0
    y: 0.0
    z: 0.0
    w: 1.0
---
header: 
  seq: 580
  stamp: 
    secs: 1529583956
    nsecs:  64883020
  frame_id: "world"
pose: 
  position: 
    x: -0.598520159721
    y: 0.206912398338
    z: 0.011124657467
  orientation: 
    x: 0.0
    y: 0.0
    z: 0.0
    w: 1.0
---
header: 
  seq: 581
  stamp: 
    secs: 1529583956
    nsecs:  85084835
  frame_id: "world"
pose: 
  position: 
    x: -0.598520159721
    y: 0.206912398338
    z: 0.011124657467
  orientation: 
    x: 0.0
    y: 0.0
    z: 0.0
    w: 1.0
---
header: 
  seq: 582
  stamp: 
    secs: 1529583956
    nsecs: 105286873
  frame_id: "world"
pose: 
  position: 
    x: -0.598520159721
    y: 0.206912398338
    z: 0.011124657467
  orientation: 
    x: 0.0
    y: 0.0
    z: 0.0
    w: 1.0
---
header: 
  seq: 583
  stamp: 
    secs: 1529583956
    nsecs: 124481927
  frame_id: "world"
pose: 
  position: 
    x: -0.598520159721
    y: 0.206912398338
    z: 0.011124657467
  orientation: 
    x: 0.0
    y: 0.0
    z: 0.0
    w: 1.0
---
header: 
  seq: 584
  stamp: 
    secs: 1529583956
    nsecs: 144685610
  frame_id: "world"
pose: 
  position: 
    x: -0.598568916321
    y: 0.207017540932
    z: 0.011051514186
  orientation: 
    x: 0.0
    y: 0.0
    z: 0.0
    w: 1.0
---
header: 
  seq: 585
  stamp: 
    secs: 1529583956
    nsecs: 164892771
  frame_id: "world"
pose: 
  position: 
    x: -0.598563671112
    y: 0.206991046667
    z: 0.0110115995631
  orientation: 
    x: 0.0
    y: 0.0
    z: 0.0
    w: 1.0
---
header: 
  seq: 586
  stamp: 
    secs: 1529583956
    nsecs: 185089809
  frame_id: "world"
pose: 
  position: 
    x: -0.598515272141
    y: 0.206927970052
    z: 0.0110993413255
  orientation: 
    x: 0.0
    y: 0.0
    z: 0.0
    w: 1.0
---
header: 
  seq: 587
  stamp: 
    secs: 1529583956
    nsecs: 205284079
  frame_id: "world"
pose: 
  position: 
    x: -0.598556518555
    y: 0.206989914179
    z: 0.0110517488793
  orientation: 
    x: 0.0
    y: 0.0
    z: 0.0
    w: 1.0
---
header: 
  seq: 588
  stamp: 
    secs: 1529583956
    nsecs: 224478958
  frame_id: "world"
pose: 
  position: 
    x: -0.598546981812
    y: 0.206986412406
    z: 0.0110294437036
  orientation: 
    x: 0.0
    y: 0.0
    z: 0.0
    w: 1.0
---
header: 
  seq: 589
  stamp: 
    secs: 1529583956
    nsecs: 244765804
  frame_id: "world"
pose: 
  position: 
    x: -0.598565936089
    y: 0.207003891468
    z: 0.0110745131969
  orientation: 
    x: 0.0
    y: 0.0
    z: 0.0
    w: 1.0
---
header: 
  seq: 590
  stamp: 
    secs: 1529583956
    nsecs: 264984189
  frame_id: "world"
pose: 
  position: 
    x: -0.598538398743
    y: 0.206976354122
    z: 0.0110381757841
  orientation: 
    x: 0.0
    y: 0.0
    z: 0.0
    w: 1.0
---
header: 
  seq: 591
  stamp: 
    secs: 1529583956
    nsecs: 285240217
  frame_id: "world"
pose: 
  position: 
    x: -0.59848177433
    y: 0.207030326128
    z: 0.0111094154418
  orientation: 
    x: 0.0
    y: 0.0
    z: 0.0
    w: 1.0
---
header: 
  seq: 592
  stamp: 
    secs: 1529583956
    nsecs: 304450545
  frame_id: "world"
pose: 
  position: 
    x: -0.598552942276
    y: 0.207013294101
    z: 0.0110613973811
  orientation: 
    x: 0.0
    y: 0.0
    z: 0.0
    w: 1.0
---
header: 
  seq: 593
  stamp: 
    secs: 1529583956
    nsecs: 324646670
  frame_id: "world"
pose: 
  position: 
    x: -0.598544597626
    y: 0.206980705261
    z: 0.0110379802063
  orientation: 
    x: 0.0
    y: 0.0
    z: 0.0
    w: 1.0
---
header: 
  seq: 594
  stamp: 
    secs: 1529583956
    nsecs: 344894966
  frame_id: "world"
pose: 
  position: 
    x: -0.598549723625
    y: 0.206989943981
    z: 0.0110673718154
  orientation: 
    x: 0.0
    y: 0.0
    z: 0.0
    w: 1.0
---
header: 
  seq: 595
  stamp: 
    secs: 1529583956
    nsecs: 365103698
  frame_id: "world"
pose: 
  position: 
    x: -0.59846329689
    y: 0.206986024976
    z: 0.0111944898963
  orientation: 
    x: 0.0
    y: 0.0
    z: 0.0
    w: 1.0
---
header: 
  seq: 596
  stamp: 
    secs: 1529583956
    nsecs: 385300645
  frame_id: "world"
pose: 
  position: 
    x: -0.598528862
    y: 0.206937476993
    z: 0.0110881067812
  orientation: 
    x: 0.0
    y: 0.0
    z: 0.0
    w: 1.0
---
header: 
  seq: 597
  stamp: 
    secs: 1529583956
    nsecs: 404504976
  frame_id: "world"
pose: 
  position: 
    x: -0.598528862
    y: 0.206937476993
    z: 0.0110881067812
  orientation: 
    x: 0.0
    y: 0.0
    z: 0.0
    w: 1.0
---
header: 
  seq: 598
  stamp: 
    secs: 1529583956
    nsecs: 424717738
  frame_id: "world"
pose: 
  position: 
    x: -0.598528862
    y: 0.206937476993
    z: 0.0110881067812
  orientation: 
    x: 0.0
    y: 0.0
    z: 0.0
    w: 1.0
---
header: 
  seq: 599
  stamp: 
    secs: 1529583956
    nsecs: 444987653
  frame_id: "world"
pose: 
  position: 
    x: -0.59850871563
    y: 0.206928953528
    z: 0.0111076394096
  orientation: 
    x: 0.0
    y: 0.0
    z: 0.0
    w: 1.0
---
header: 
  seq: 600
  stamp: 
    secs: 1529583956
    nsecs: 465236755
  frame_id: "world"
pose: 
  position: 
    x: -0.59850871563
    y: 0.206928953528
    z: 0.0111076394096
  orientation: 
    x: 0.0
    y: 0.0
    z: 0.0
    w: 1.0
---
header: 
  seq: 601
  stamp: 
    secs: 1529583956
    nsecs: 484387256
  frame_id: "world"
pose: 
  position: 
    x: -0.59850871563
    y: 0.206928953528
    z: 0.0111076394096
  orientation: 
    x: 0.0
    y: 0.0
    z: 0.0
    w: 1.0
---
header: 
  seq: 602
  stamp: 
    secs: 1529583956
    nsecs: 504617166
  frame_id: "world"
pose: 
  position: 
    x: -0.598525762558
    y: 0.207003355026
    z: 0.0110284611583
  orientation: 
    x: 0.0
    y: 0.0
    z: 0.0
    w: 1.0
---
header: 
  seq: 603
  stamp: 
    secs: 1529583956
    nsecs: 524879013
  frame_id: "world"
pose: 
  position: 
    x: -0.598525762558
    y: 0.207003355026
    z: 0.0110284611583
  orientation: 
    x: 0.0
    y: 0.0
    z: 0.0
    w: 1.0
---
header: 
  seq: 604
  stamp: 
    secs: 1529583956
    nsecs: 545067045
  frame_id: "world"
pose: 
  position: 
    x: -0.59853219986
    y: 0.206988975406
    z: 0.0110087124631
  orientation: 
    x: 0.0
    y: 0.0
    z: 0.0
    w: 1.0
---
header: 
  seq: 605
  stamp: 
    secs: 1529583956
    nsecs: 565273065
  frame_id: "world"
pose: 
  position: 
    x: -0.598520755768
    y: 0.206928700209
    z: 0.0110902125016
  orientation: 
    x: 0.0
    y: 0.0
    z: 0.0
    w: 1.0
---
header: 
  seq: 606
  stamp: 
    secs: 1529583956
    nsecs: 584471204
  frame_id: "world"
pose: 
  position: 
    x: -0.598544716835
    y: 0.207003414631
    z: 0.0110540501773
  orientation: 
    x: 0.0
    y: 0.0
    z: 0.0
    w: 1.0
---
header: 
  seq: 607
  stamp: 
    secs: 1529583956
    nsecs: 604757418
  frame_id: "world"
pose: 
  position: 
    x: -0.598504424095
    y: 0.206922799349
    z: 0.0110658351332
  orientation: 
    x: 0.0
    y: 0.0
    z: 0.0
    w: 1.0
---
header: 
  seq: 608
  stamp: 
    secs: 1529583956
    nsecs: 624987937
  frame_id: "world"
pose: 
  position: 
    x: -0.598551869392
    y: 0.206992432475
    z: 0.0110292788595
  orientation: 
    x: 0.0
    y: 0.0
    z: 0.0
    w: 1.0
---
header: 
  seq: 609
  stamp: 
    secs: 1529583956
    nsecs: 645169919
  frame_id: "world"
pose: 
  position: 
    x: -0.598519682884
    y: 0.206958919764
    z: 0.0111140348017
  orientation: 
    x: 0.0
    y: 0.0
    z: 0.0
    w: 1.0
---
header: 
  seq: 610
  stamp: 
    secs: 1529583956
    nsecs: 665378210
  frame_id: "world"
pose: 
  position: 
    x: -0.598519682884
    y: 0.206958919764
    z: 0.0111140348017
  orientation: 
    x: 0.0
    y: 0.0
    z: 0.0
    w: 1.0
---
header: 
  seq: 611
  stamp: 
    secs: 1529583956
    nsecs: 684604591
  frame_id: "world"
pose: 
  position: 
    x: -0.598514080048
    y: 0.206948041916
    z: 0.0110935866833
  orientation: 
    x: 0.0
    y: 0.0
    z: 0.0
    w: 1.0
---
header: 
  seq: 612
  stamp: 
    secs: 1529583956
    nsecs: 704801469
  frame_id: "world"
pose: 
  position: 
    x: -0.598514080048
    y: 0.206948041916
    z: 0.0110935866833
  orientation: 
    x: 0.0
    y: 0.0
    z: 0.0
    w: 1.0
---
header: 
  seq: 613
  stamp: 
    secs: 1529583956
    nsecs: 725013527
  frame_id: "world"
pose: 
  position: 
    x: -0.598498821259
    y: 0.206926137209
    z: 0.0110743232071
  orientation: 
    x: 0.0
    y: 0.0
    z: 0.0
    w: 1.0
---
header: 
  seq: 614
  stamp: 
    secs: 1529583956
    nsecs: 745305129
  frame_id: "world"
pose: 
  position: 
    x: -0.598527789116
    y: 0.206939518452
    z: 0.0111265201122
  orientation: 
    x: 0.0
    y: 0.0
    z: 0.0
    w: 1.0
---
header: 
  seq: 615
  stamp: 
    secs: 1529583956
    nsecs: 764553680
  frame_id: "world"
pose: 
  position: 
    x: -0.598527789116
    y: 0.206939518452
    z: 0.0111265201122
  orientation: 
    x: 0.0
    y: 0.0
    z: 0.0
    w: 1.0
---
header: 
  seq: 616
  stamp: 
    secs: 1529583956
    nsecs: 784781711
  frame_id: "world"
pose: 
  position: 
    x: -0.598465442657
    y: 0.207044407725
    z: 0.0111234951764
  orientation: 
    x: 0.0
    y: 0.0
    z: 0.0
    w: 1.0
---
header: 
  seq: 617
  stamp: 
    secs: 1529583956
    nsecs: 804998366
  frame_id: "world"
pose: 
  position: 
    x: -0.598531007767
    y: 0.206984639168
    z: 0.0110344737768
  orientation: 
    x: 0.0
    y: 0.0
    z: 0.0
    w: 1.0
---
header: 
  seq: 618
  stamp: 
    secs: 1529583956
    nsecs: 825228747
  frame_id: "world"
pose: 
  position: 
    x: -0.598562002182
    y: 0.206993043423
    z: 0.0110418051481
  orientation: 
    x: 0.0
    y: 0.0
    z: 0.0
    w: 1.0
---
header: 
  seq: 619
  stamp: 
    secs: 1529583956
    nsecs: 844373510
  frame_id: "world"
pose: 
  position: 
    x: -0.598555922508
    y: 0.207000717521
    z: 0.0110301170498
  orientation: 
    x: 0.0
    y: 0.0
    z: 0.0
    w: 1.0
---
header: 
  seq: 620
  stamp: 
    secs: 1529583956
    nsecs: 864560930
  frame_id: "world"
pose: 
  position: 
    x: -0.598520874977
    y: 0.206924930215
    z: 0.01111452654
  orientation: 
    x: 0.0
    y: 0.0
    z: 0.0
    w: 1.0
---
header: 
  seq: 621
  stamp: 
    secs: 1529583956
    nsecs: 884763975
  frame_id: "world"
pose: 
  position: 
    x: -0.598485469818
    y: 0.207050174475
    z: 0.0111118936911
  orientation: 
    x: 0.0
    y: 0.0
    z: 0.0
    w: 1.0
---
header: 
  seq: 622
  stamp: 
    secs: 1529583956
    nsecs: 904960963
  frame_id: "world"
pose: 
  position: 
    x: -0.598546504974
    y: 0.207014203072
    z: 0.0110289994627
  orientation: 
    x: 0.0
    y: 0.0
    z: 0.0
    w: 1.0
---
header: 
  seq: 623
  stamp: 
    secs: 1529583956
    nsecs: 925184073
  frame_id: "world"
pose: 
  position: 
    x: -0.598543405533
    y: 0.207007333636
    z: 0.0110337771475
  orientation: 
    x: 0.0
    y: 0.0
    z: 0.0
    w: 1.0
---
header: 
  seq: 624
  stamp: 
    secs: 1529583956
    nsecs: 944347182
  frame_id: "world"
pose: 
  position: 
    x: -0.598543405533
    y: 0.207007333636
    z: 0.0110337771475
  orientation: 
    x: 0.0
    y: 0.0
    z: 0.0
    w: 1.0
---
header: 
  seq: 625
  stamp: 
    secs: 1529583956
    nsecs: 964539251
  frame_id: "world"
pose: 
  position: 
    x: -0.598546981812
    y: 0.206997096539
    z: 0.0110418004915
  orientation: 
    x: 0.0
    y: 0.0
    z: 0.0
    w: 1.0
---
header: 
  seq: 626
  stamp: 
    secs: 1529583956
    nsecs: 984804435
  frame_id: "world"
pose: 
  position: 
    x: -0.598544120789
    y: 0.207003861666
    z: 0.0110503602773
  orientation: 
    x: 0.0
    y: 0.0
    z: 0.0
    w: 1.0
---
header: 
  seq: 627
  stamp: 
    secs: 1529583957
    nsecs:   5048340
  frame_id: "world"
pose: 
  position: 
    x: -0.598518610001
    y: 0.20692768693
    z: 0.0110844131559
  orientation: 
    x: 0.0
    y: 0.0
    z: 0.0
    w: 1.0
---
header: 
  seq: 628
  stamp: 
    secs: 1529583957
    nsecs:  25239181
  frame_id: "world"
pose: 
  position: 
    x: -0.59854888916
    y: 0.207013383508
    z: 0.0110236629844
  orientation: 
    x: 0.0
    y: 0.0
    z: 0.0
    w: 1.0
---
header: 
  seq: 629
  stamp: 
    secs: 1529583957
    nsecs:  44394418
  frame_id: "world"
pose: 
  position: 
    x: -0.598528265953
    y: 0.206942290068
    z: 0.0110804410651
  orientation: 
    x: 0.0
    y: 0.0
    z: 0.0
    w: 1.0
---
header: 
  seq: 630
  stamp: 
    secs: 1529583957
    nsecs:  64630226
  frame_id: "world"
pose: 
  position: 
    x: -0.598512768745
    y: 0.206928819418
    z: 0.0110634397715
  orientation: 
    x: 0.0
    y: 0.0
    z: 0.0
    w: 1.0
---
header: 
  seq: 631
  stamp: 
    secs: 1529583957
    nsecs:  84846558
  frame_id: "world"
pose: 
  position: 
    x: -0.598523497581
    y: 0.206941097975
    z: 0.0110905244946
  orientation: 
    x: 0.0
    y: 0.0
    z: 0.0
    w: 1.0
---
header: 
  seq: 632
  stamp: 
    secs: 1529583957
    nsecs: 105038005
  frame_id: "world"
pose: 
  position: 
    x: -0.598515510559
    y: 0.206948697567
    z: 0.0110806198791
  orientation: 
    x: 0.0
    y: 0.0
    z: 0.0
    w: 1.0
---
header: 
  seq: 633
  stamp: 
    secs: 1529583957
    nsecs: 125233018
  frame_id: "world"
pose: 
  position: 
    x: -0.598515510559
    y: 0.206948697567
    z: 0.0110806198791
  orientation: 
    x: 0.0
    y: 0.0
    z: 0.0
    w: 1.0
---
header: 
  seq: 634
  stamp: 
    secs: 1529583957
    nsecs: 144390514
  frame_id: "world"
pose: 
  position: 
    x: -0.598520755768
    y: 0.206950753927
    z: 0.0110918516293
  orientation: 
    x: 0.0
    y: 0.0
    z: 0.0
    w: 1.0
---
header: 
  seq: 635
  stamp: 
    secs: 1529583957
    nsecs: 164663931
  frame_id: "world"
pose: 
  position: 
    x: -0.598514199257
    y: 0.206930041313
    z: 0.0110827768221
  orientation: 
    x: 0.0
    y: 0.0
    z: 0.0
    w: 1.0
---
header: 
  seq: 636
  stamp: 
    secs: 1529583957
    nsecs: 184866289
  frame_id: "world"
pose: 
  position: 
    x: -0.598523378372
    y: 0.206934601068
    z: 0.0111021334305
  orientation: 
    x: 0.0
    y: 0.0
    z: 0.0
    w: 1.0
---
header: 
  seq: 637
  stamp: 
    secs: 1529583957
    nsecs: 205081182
  frame_id: "world"
pose: 
  position: 
    x: -0.598526000977
    y: 0.206949472427
    z: 0.0111108738929
  orientation: 
    x: 0.0
    y: 0.0
    z: 0.0
    w: 1.0
---
header: 
  seq: 638
  stamp: 
    secs: 1529583957
    nsecs: 225302073
  frame_id: "world"
pose: 
  position: 
    x: -0.598531961441
    y: 0.207005634904
    z: 0.0110192019492
  orientation: 
    x: 0.0
    y: 0.0
    z: 0.0
    w: 1.0
---
header: 
  seq: 639
  stamp: 
    secs: 1529583957
    nsecs: 244557788
  frame_id: "world"
pose: 
  position: 
    x: -0.598557829857
    y: 0.207024127245
    z: 0.0110091185197
  orientation: 
    x: 0.0
    y: 0.0
    z: 0.0
    w: 1.0
---
header: 
  seq: 640
  stamp: 
    secs: 1529583957
    nsecs: 264791068
  frame_id: "world"
pose: 
  position: 
    x: -0.598556041718
    y: 0.206999018788
    z: 0.0110400607809
  orientation: 
    x: 0.0
    y: 0.0
    z: 0.0
    w: 1.0
---
header: 
  seq: 641
  stamp: 
    secs: 1529583957
    nsecs: 285027397
  frame_id: "world"
pose: 
  position: 
    x: -0.598538398743
    y: 0.206998258829
    z: 0.0110158678144
  orientation: 
    x: 0.0
    y: 0.0
    z: 0.0
    w: 1.0
---
header: 
  seq: 642
  stamp: 
    secs: 1529583957
    nsecs: 305272875
  frame_id: "world"
pose: 
  position: 
    x: -0.598517298698
    y: 0.206944137812
    z: 0.0110944379121
  orientation: 
    x: 0.0
    y: 0.0
    z: 0.0
    w: 1.0
---
header: 
  seq: 643
  stamp: 
    secs: 1529583957
    nsecs: 324496897
  frame_id: "world"
pose: 
  position: 
    x: -0.598545312881
    y: 0.206985354424
    z: 0.0110126901418
  orientation: 
    x: 0.0
    y: 0.0
    z: 0.0
    w: 1.0
---
header: 
  seq: 644
  stamp: 
    secs: 1529583957
    nsecs: 344709184
  frame_id: "world"
pose: 
  position: 
    x: -0.598523855209
    y: 0.206939980388
    z: 0.0110689885914
  orientation: 
    x: 0.0
    y: 0.0
    z: 0.0
    w: 1.0
---
header: 
  seq: 645
  stamp: 
    secs: 1529583957
    nsecs: 364929588
  frame_id: "world"
pose: 
  position: 
    x: -0.598541975021
    y: 0.207014620304
    z: 0.0110089117661
  orientation: 
    x: 0.0
    y: 0.0
    z: 0.0
    w: 1.0
---
header: 
  seq: 646
  stamp: 
    secs: 1529583957
    nsecs: 385151928
  frame_id: "world"
pose: 
  position: 
    x: -0.598532676697
    y: 0.206952571869
    z: 0.0111110638827
  orientation: 
    x: 0.0
    y: 0.0
    z: 0.0
    w: 1.0
---
header: 
  seq: 647
  stamp: 
    secs: 1529583957
    nsecs: 405367053
  frame_id: "world"
pose: 
  position: 
    x: -0.598526358604
    y: 0.206926256418
    z: 0.0110454317182
  orientation: 
    x: 0.0
    y: 0.0
    z: 0.0
    w: 1.0
---
header: 
  seq: 648
  stamp: 
    secs: 1529583957
    nsecs: 425186666
  frame_id: "world"
pose: 
  position: 
    x: -0.598537564278
    y: 0.207006156445
    z: 0.0110220685601
  orientation: 
    x: 0.0
    y: 0.0
    z: 0.0
    w: 1.0
---
header: 
  seq: 649
  stamp: 
    secs: 1529583957
    nsecs: 444495656
  frame_id: "world"
pose: 
  position: 
    x: -0.59855568409
    y: 0.207013949752
    z: 0.0110361874104
  orientation: 
    x: 0.0
    y: 0.0
    z: 0.0
    w: 1.0
---
header: 
  seq: 650
  stamp: 
    secs: 1529583957
    nsecs: 464740582
  frame_id: "world"
pose: 
  position: 
    x: -0.598554968834
    y: 0.20699301362
    z: 0.0110025284812
  orientation: 
    x: 0.0
    y: 0.0
    z: 0.0
    w: 1.0
---
header: 
  seq: 651
  stamp: 
    secs: 1529583957
    nsecs: 484996752
  frame_id: "world"
pose: 
  position: 
    x: -0.598554968834
    y: 0.20699301362
    z: 0.0110025284812
  orientation: 
    x: 0.0
    y: 0.0
    z: 0.0
    w: 1.0
---
header: 
  seq: 652
  stamp: 
    secs: 1529583957
    nsecs: 505193200
  frame_id: "world"
pose: 
  position: 
    x: -0.598554968834
    y: 0.20699301362
    z: 0.0110025284812
  orientation: 
    x: 0.0
    y: 0.0
    z: 0.0
    w: 1.0
---
header: 
  seq: 653
  stamp: 
    secs: 1529583957
    nsecs: 524368611
  frame_id: "world"
pose: 
  position: 
    x: -0.598526835442
    y: 0.206919714808
    z: 0.0110834874213
  orientation: 
    x: 0.0
    y: 0.0
    z: 0.0
    w: 1.0
---
header: 
  seq: 654
  stamp: 
    secs: 1529583957
    nsecs: 544584231
  frame_id: "world"
pose: 
  position: 
    x: -0.598526835442
    y: 0.206919714808
    z: 0.0110834874213
  orientation: 
    x: 0.0
    y: 0.0
    z: 0.0
    w: 1.0
---
header: 
  seq: 655
  stamp: 
    secs: 1529583957
    nsecs: 564743976
  frame_id: "world"
pose: 
  position: 
    x: -0.598520517349
    y: 0.20692884922
    z: 0.0110959000885
  orientation: 
    x: 0.0
    y: 0.0
    z: 0.0
    w: 1.0
---
header: 
  seq: 656
  stamp: 
    secs: 1529583957
    nsecs: 584992672
  frame_id: "world"
pose: 
  position: 
    x: -0.598531246185
    y: 0.206930100918
    z: 0.0110923815519
  orientation: 
    x: 0.0
    y: 0.0
    z: 0.0
    w: 1.0
---
header: 
  seq: 657
  stamp: 
    secs: 1529583957
    nsecs: 605208359
  frame_id: "world"
pose: 
  position: 
    x: -0.598523259163
    y: 0.20691858232
    z: 0.0110883275047
  orientation: 
    x: 0.0
    y: 0.0
    z: 0.0
    w: 1.0
---
header: 
  seq: 658
  stamp: 
    secs: 1529583957
    nsecs: 624372727
  frame_id: "world"
pose: 
  position: 
    x: -0.598549365997
    y: 0.206952959299
    z: 0.011114789173
  orientation: 
    x: 0.0
    y: 0.0
    z: 0.0
    w: 1.0
---
header: 
  seq: 659
  stamp: 
    secs: 1529583957
    nsecs: 644616225
  frame_id: "world"
pose: 
  position: 
    x: -0.598522186279
    y: 0.206928670406
    z: 0.0110867097974
  orientation: 
    x: 0.0
    y: 0.0
    z: 0.0
    w: 1.0
---
header: 
  seq: 660
  stamp: 
    secs: 1529583957
    nsecs: 664802465
  frame_id: "world"
pose: 
  position: 
    x: -0.598547101021
    y: 0.206997022033
    z: 0.0110346488655
  orientation: 
    x: 0.0
    y: 0.0
    z: 0.0
    w: 1.0
---
header: 
  seq: 661
  stamp: 
    secs: 1529583957
    nsecs: 685165554
  frame_id: "world"
pose: 
  position: 
    x: -0.598545193672
    y: 0.206989198923
    z: 0.0110219167545
  orientation: 
    x: 0.0
    y: 0.0
    z: 0.0
    w: 1.0
---
header: 
  seq: 662
  stamp: 
    secs: 1529583957
    nsecs: 704371946
  frame_id: "world"
pose: 
  position: 
    x: -0.598541140556
    y: 0.206999465823
    z: 0.0110142752528
  orientation: 
    x: 0.0
    y: 0.0
    z: 0.0
    w: 1.0
---
header: 
  seq: 663
  stamp: 
    secs: 1529583957
    nsecs: 724571716
  frame_id: "world"
pose: 
  position: 
    x: -0.598511219025
    y: 0.206931814551
    z: 0.0110892970115
  orientation: 
    x: 0.0
    y: 0.0
    z: 0.0
    w: 1.0
---
header: 
  seq: 664
  stamp: 
    secs: 1529583957
    nsecs: 744804557
  frame_id: "world"
pose: 
  position: 
    x: -0.598566412926
    y: 0.207018733025
    z: 0.0110572967678
  orientation: 
    x: 0.0
    y: 0.0
    z: 0.0
    w: 1.0
---
header: 
  seq: 665
  stamp: 
    secs: 1529583957
    nsecs: 765061197
  frame_id: "world"
pose: 
  position: 
    x: -0.598566412926
    y: 0.207018733025
    z: 0.0110572967678
  orientation: 
    x: 0.0
    y: 0.0
    z: 0.0
    w: 1.0
---
header: 
  seq: 666
  stamp: 
    secs: 1529583957
    nsecs: 785265848
  frame_id: "world"
pose: 
  position: 
    x: -0.598500609398
    y: 0.206939056516
    z: 0.0110669415444
  orientation: 
    x: 0.0
    y: 0.0
    z: 0.0
    w: 1.0
---
header: 
  seq: 667
  stamp: 
    secs: 1529583957
    nsecs: 804473674
  frame_id: "world"
pose: 
  position: 
    x: -0.598503112793
    y: 0.206941187382
    z: 0.0110942004248
  orientation: 
    x: 0.0
    y: 0.0
    z: 0.0
    w: 1.0
---
header: 
  seq: 668
  stamp: 
    secs: 1529583957
    nsecs: 824683660
  frame_id: "world"
pose: 
  position: 
    x: -0.598503112793
    y: 0.206941187382
    z: 0.0110942004248
  orientation: 
    x: 0.0
    y: 0.0
    z: 0.0
    w: 1.0
---
header: 
  seq: 669
  stamp: 
    secs: 1529583957
    nsecs: 844986231
  frame_id: "world"
pose: 
  position: 
    x: -0.598508358002
    y: 0.206935241818
    z: 0.011073037982
  orientation: 
    x: 0.0
    y: 0.0
    z: 0.0
    w: 1.0
---
header: 
  seq: 670
  stamp: 
    secs: 1529583957
    nsecs: 865242637
  frame_id: "world"
pose: 
  position: 
    x: -0.59851706028
    y: 0.206939607859
    z: 0.0111031169072
  orientation: 
    x: 0.0
    y: 0.0
    z: 0.0
    w: 1.0
---
header: 
  seq: 671
  stamp: 
    secs: 1529583957
    nsecs: 884487283
  frame_id: "world"
pose: 
  position: 
    x: -0.598504543304
    y: 0.2069542557
    z: 0.0111147770658
  orientation: 
    x: 0.0
    y: 0.0
    z: 0.0
    w: 1.0
---
header: 
  seq: 672
  stamp: 
    secs: 1529583957
    nsecs: 904731638
  frame_id: "world"
pose: 
  position: 
    x: -0.598528146744
    y: 0.20699608326
    z: 0.011013253592
  orientation: 
    x: 0.0
    y: 0.0
    z: 0.0
    w: 1.0
---
header: 
  seq: 673
  stamp: 
    secs: 1529583957
    nsecs: 924949846
  frame_id: "world"
pose: 
  position: 
    x: -0.598504424095
    y: 0.206946521997
    z: 0.0111093306914
  orientation: 
    x: 0.0
    y: 0.0
    z: 0.0
    w: 1.0
---
header: 
  seq: 674
  stamp: 
    secs: 1529583957
    nsecs: 945157702
  frame_id: "world"
pose: 
  position: 
    x: -0.59853708744
    y: 0.207006514072
    z: 0.0110277058557
  orientation: 
    x: 0.0
    y: 0.0
    z: 0.0
    w: 1.0
---
header: 
  seq: 675
  stamp: 
    secs: 1529583957
    nsecs: 965375374
  frame_id: "world"
pose: 
  position: 
    x: -0.598519682884
    y: 0.206925407052
    z: 0.0110804252326
  orientation: 
    x: 0.0
    y: 0.0
    z: 0.0
    w: 1.0
---
header: 
  seq: 676
  stamp: 
    secs: 1529583957
    nsecs: 985164709
  frame_id: "world"
pose: 
  position: 
    x: -0.598542571068
    y: 0.206997066736
    z: 0.0110313063487
  orientation: 
    x: 0.0
    y: 0.0
    z: 0.0
    w: 1.0
---
header: 
  seq: 677
  stamp: 
    secs: 1529583958
    nsecs:   4353096
  frame_id: "world"
pose: 
  position: 
    x: -0.598455429077
    y: 0.207020953298
    z: 0.0112113598734
  orientation: 
    x: 0.0
    y: 0.0
    z: 0.0
    w: 1.0
---
header: 
  seq: 678
  stamp: 
    secs: 1529583958
    nsecs:  24691557
  frame_id: "world"
pose: 
  position: 
    x: -0.598547697067
    y: 0.206993028522
    z: 0.011022919789
  orientation: 
    x: 0.0
    y: 0.0
    z: 0.0
    w: 1.0
---
header: 
  seq: 679
  stamp: 
    secs: 1529583958
    nsecs:  44881664
  frame_id: "world"
pose: 
  position: 
    x: -0.598524093628
    y: 0.206931173801
    z: 0.0111198378727
  orientation: 
    x: 0.0
    y: 0.0
    z: 0.0
    w: 1.0
---
header: 
  seq: 680
  stamp: 
    secs: 1529583958
    nsecs:  65091044
  frame_id: "world"
pose: 
  position: 
    x: -0.598570585251
    y: 0.20702251792
    z: 0.0110829472542
  orientation: 
    x: 0.0
    y: 0.0
    z: 0.0
    w: 1.0
---
header: 
  seq: 681
  stamp: 
    secs: 1529583958
    nsecs:  85321341
  frame_id: "world"
pose: 
  position: 
    x: -0.598559856415
    y: 0.20702020824
    z: 0.0110534550622
  orientation: 
    x: 0.0
    y: 0.0
    z: 0.0
    w: 1.0
---
header: 
  seq: 682
  stamp: 
    secs: 1529583958
    nsecs: 104531609
  frame_id: "world"
pose: 
  position: 
    x: -0.598507523537
    y: 0.206907808781
    z: 0.0110643403605
  orientation: 
    x: 0.0
    y: 0.0
    z: 0.0
    w: 1.0
---
header: 
  seq: 683
  stamp: 
    secs: 1529583958
    nsecs: 124716341
  frame_id: "world"
pose: 
  position: 
    x: -0.598559975624
    y: 0.207039386034
    z: 0.0110726617277
  orientation: 
    x: 0.0
    y: 0.0
    z: 0.0
    w: 1.0
---
header: 
  seq: 684
  stamp: 
    secs: 1529583958
    nsecs: 144913241
  frame_id: "world"
pose: 
  position: 
    x: -0.598544597626
    y: 0.206996768713
    z: 0.0110043715686
  orientation: 
    x: 0.0
    y: 0.0
    z: 0.0
    w: 1.0
---
header: 
  seq: 685
  stamp: 
    secs: 1529583958
    nsecs: 165140089
  frame_id: "world"
pose: 
  position: 
    x: -0.598567605019
    y: 0.207001507282
    z: 0.0110338404775
  orientation: 
    x: 0.0
    y: 0.0
    z: 0.0
    w: 1.0
---
header: 
  seq: 686
  stamp: 
    secs: 1529583958
    nsecs: 185350442
  frame_id: "world"
pose: 
  position: 
    x: -0.598516941071
    y: 0.206942543387
    z: 0.0110798664391
  orientation: 
    x: 0.0
    y: 0.0
    z: 0.0
    w: 1.0
---
header: 
  seq: 687
  stamp: 
    secs: 1529583958
    nsecs: 204536838
  frame_id: "world"
pose: 
  position: 
    x: -0.598515510559
    y: 0.206932574511
    z: 0.0110837044194
  orientation: 
    x: 0.0
    y: 0.0
    z: 0.0
    w: 1.0
---
header: 
  seq: 688
  stamp: 
    secs: 1529583958
    nsecs: 224771131
  frame_id: "world"
pose: 
  position: 
    x: -0.598547816277
    y: 0.206968769431
    z: 0.0109835099429
  orientation: 
    x: 0.0
    y: 0.0
    z: 0.0
    w: 1.0
---
header: 
  seq: 689
  stamp: 
    secs: 1529583958
    nsecs: 244978585
  frame_id: "world"
pose: 
  position: 
    x: -0.598523020744
    y: 0.206932902336
    z: 0.0110983029008
  orientation: 
    x: 0.0
    y: 0.0
    z: 0.0
    w: 1.0
---
header: 
  seq: 690
  stamp: 
    secs: 1529583958
    nsecs: 265167403
  frame_id: "world"
pose: 
  position: 
    x: -0.598541259766
    y: 0.206926971674
    z: 0.0110875926912
  orientation: 
    x: 0.0
    y: 0.0
    z: 0.0
    w: 1.0
---
header: 
  seq: 691
  stamp: 
    secs: 1529583958
    nsecs: 285371872
  frame_id: "world"
pose: 
  position: 
    x: -0.598565936089
    y: 0.20700725913
    z: 0.0110232513398
  orientation: 
    x: 0.0
    y: 0.0
    z: 0.0
    w: 1.0
---
header: 
  seq: 692
  stamp: 
    secs: 1529583958
    nsecs: 304578153
  frame_id: "world"
pose: 
  position: 
    x: -0.598507761955
    y: 0.206931754947
    z: 0.0110707134008
  orientation: 
    x: 0.0
    y: 0.0
    z: 0.0
    w: 1.0
---
header: 
  seq: 693
  stamp: 
    secs: 1529583958
    nsecs: 324780266
  frame_id: "world"
pose: 
  position: 
    x: -0.59853720665
    y: 0.207023322582
    z: 0.0110238995403
  orientation: 
    x: 0.0
    y: 0.0
    z: 0.0
    w: 1.0
---
header: 
  seq: 694
  stamp: 
    secs: 1529583958
    nsecs: 344993269
  frame_id: "world"
pose: 
  position: 
    x: -0.598535776138
    y: 0.207009553909
    z: 0.0109892208129
  orientation: 
    x: 0.0
    y: 0.0
    z: 0.0
    w: 1.0
---
header: 
  seq: 695
  stamp: 
    secs: 1529583958
    nsecs: 365212122
  frame_id: "world"
pose: 
  position: 
    x: -0.59851872921
    y: 0.206931114197
    z: 0.0110468585044
  orientation: 
    x: 0.0
    y: 0.0
    z: 0.0
    w: 1.0
---
header: 
  seq: 696
  stamp: 
    secs: 1529583958
    nsecs: 384401012
  frame_id: "world"
pose: 
  position: 
    x: -0.59851872921
    y: 0.206931114197
    z: 0.0110468585044
  orientation: 
    x: 0.0
    y: 0.0
    z: 0.0
    w: 1.0
---
header: 
  seq: 697
  stamp: 
    secs: 1529583958
    nsecs: 404720071
  frame_id: "world"
pose: 
  position: 
    x: -0.598542571068
    y: 0.207012414932
    z: 0.0110273873433
  orientation: 
    x: 0.0
    y: 0.0
    z: 0.0
    w: 1.0
---
header: 
  seq: 698
  stamp: 
    secs: 1529583958
    nsecs: 424916926
  frame_id: "world"
pose: 
  position: 
    x: -0.598550200462
    y: 0.207004100084
    z: 0.0110331252217
  orientation: 
    x: 0.0
    y: 0.0
    z: 0.0
    w: 1.0
---
header: 
  seq: 699
  stamp: 
    secs: 1529583958
    nsecs: 445130679
  frame_id: "world"
pose: 
  position: 
    x: -0.598550200462
    y: 0.207004100084
    z: 0.0110331252217
  orientation: 
    x: 0.0
    y: 0.0
    z: 0.0
    w: 1.0
---
header: 
  seq: 700
  stamp: 
    secs: 1529583958
    nsecs: 465349957
  frame_id: "world"
pose: 
  position: 
    x: -0.598534107208
    y: 0.207016289234
    z: 0.0110401343554
  orientation: 
    x: 0.0
    y: 0.0
    z: 0.0
    w: 1.0
---
header: 
  seq: 701
  stamp: 
    secs: 1529583958
    nsecs: 484568589
  frame_id: "world"
pose: 
  position: 
    x: -0.598511457443
    y: 0.206933200359
    z: 0.0110612865537
  orientation: 
    x: 0.0
    y: 0.0
    z: 0.0
    w: 1.0
---
header: 
  seq: 702
  stamp: 
    secs: 1529583958
    nsecs: 504790223
  frame_id: "world"
pose: 
  position: 
    x: -0.598518610001
    y: 0.206948652864
    z: 0.0111011248082
  orientation: 
    x: 0.0
    y: 0.0
    z: 0.0
    w: 1.0
---
header: 
  seq: 703
  stamp: 
    secs: 1529583958
    nsecs: 524979072
  frame_id: "world"
pose: 
  position: 
    x: -0.59851372242
    y: 0.206955760717
    z: 0.0111027043313
  orientation: 
    x: 0.0
    y: 0.0
    z: 0.0
    w: 1.0
---
header: 
  seq: 704
  stamp: 
    secs: 1529583958
    nsecs: 545205014
  frame_id: "world"
pose: 
  position: 
    x: -0.598539233208
    y: 0.206986397505
    z: 0.0110022816807
  orientation: 
    x: 0.0
    y: 0.0
    z: 0.0
    w: 1.0
---
header: 
  seq: 705
  stamp: 
    secs: 1529583958
    nsecs: 564451568
  frame_id: "world"
pose: 
  position: 
    x: -0.598534941673
    y: 0.206923484802
    z: 0.0110886599869
  orientation: 
    x: 0.0
    y: 0.0
    z: 0.0
    w: 1.0
---
header: 
  seq: 706
  stamp: 
    secs: 1529583958
    nsecs: 584664431
  frame_id: "world"
pose: 
  position: 
    x: -0.598534941673
    y: 0.206923484802
    z: 0.0110886599869
  orientation: 
    x: 0.0
    y: 0.0
    z: 0.0
    w: 1.0
---
header: 
  seq: 707
  stamp: 
    secs: 1529583958
    nsecs: 604941555
  frame_id: "world"
pose: 
  position: 
    x: -0.598534941673
    y: 0.206923484802
    z: 0.0110886599869
  orientation: 
    x: 0.0
    y: 0.0
    z: 0.0
    w: 1.0
---
header: 
  seq: 708
  stamp: 
    secs: 1529583958
    nsecs: 625150322
  frame_id: "world"
pose: 
  position: 
    x: -0.598534941673
    y: 0.206923484802
    z: 0.0110886599869
  orientation: 
    x: 0.0
    y: 0.0
    z: 0.0
    w: 1.0
---
header: 
  seq: 709
  stamp: 
    secs: 1529583958
    nsecs: 645318300
  frame_id: "world"
pose: 
  position: 
    x: -0.59854054451
    y: 0.206993505359
    z: 0.0109809460118
  orientation: 
    x: 0.0
    y: 0.0
    z: 0.0
    w: 1.0
---
header: 
  seq: 710
  stamp: 
    secs: 1529583958
    nsecs: 664521642
  frame_id: "world"
pose: 
  position: 
    x: -0.59854054451
    y: 0.206993505359
    z: 0.0109809460118
  orientation: 
    x: 0.0
    y: 0.0
    z: 0.0
    w: 1.0
---
header: 
  seq: 711
  stamp: 
    secs: 1529583958
    nsecs: 684512257
  frame_id: "world"
pose: 
  position: 
    x: -0.59854054451
    y: 0.206993505359
    z: 0.0109809460118
  orientation: 
    x: 0.0
    y: 0.0
    z: 0.0
    w: 1.0
---
header: 
  seq: 712
  stamp: 
    secs: 1529583958
    nsecs: 704745241
  frame_id: "world"
pose: 
  position: 
    x: -0.59854054451
    y: 0.206993505359
    z: 0.0109809460118
  orientation: 
    x: 0.0
    y: 0.0
    z: 0.0
    w: 1.0
---
header: 
  seq: 713
  stamp: 
    secs: 1529583958
    nsecs: 724939443
  frame_id: "world"
pose: 
  position: 
    x: -0.598547935486
    y: 0.206982150674
    z: 0.011002747342
  orientation: 
    x: 0.0
    y: 0.0
    z: 0.0
    w: 1.0
---
header: 
  seq: 714
  stamp: 
    secs: 1529583958
    nsecs: 745173548
  frame_id: "world"
pose: 
  position: 
    x: -0.598549485207
    y: 0.206941962242
    z: 0.0110982740298
  orientation: 
    x: 0.0
    y: 0.0
    z: 0.0
    w: 1.0
---
header: 
  seq: 715
  stamp: 
    secs: 1529583958
    nsecs: 765389933
  frame_id: "world"
pose: 
  position: 
    x: -0.59854221344
    y: 0.207001641393
    z: 0.0110157672316
  orientation: 
    x: 0.0
    y: 0.0
    z: 0.0
    w: 1.0
---
header: 
  seq: 716
  stamp: 
    secs: 1529583958
    nsecs: 784657609
  frame_id: "world"
pose: 
  position: 
    x: -0.59854221344
    y: 0.207001641393
    z: 0.0110157672316
  orientation: 
    x: 0.0
    y: 0.0
    z: 0.0
    w: 1.0
---
header: 
  seq: 717
  stamp: 
    secs: 1529583958
    nsecs: 804877287
  frame_id: "world"
pose: 
  position: 
    x: -0.598546385765
    y: 0.206999137998
    z: 0.0110199544579
  orientation: 
    x: 0.0
    y: 0.0
    z: 0.0
    w: 1.0
---
header: 
  seq: 718
  stamp: 
    secs: 1529583958
    nsecs: 825073557
  frame_id: "world"
pose: 
  position: 
    x: -0.598467946053
    y: 0.20703484118
    z: 0.0111958328635
  orientation: 
    x: 0.0
    y: 0.0
    z: 0.0
    w: 1.0
---
header: 
  seq: 719
  stamp: 
    secs: 1529583958
    nsecs: 844472722
  frame_id: "world"
pose: 
  position: 
    x: -0.598467946053
    y: 0.20703484118
    z: 0.0111958328635
  orientation: 
    x: 0.0
    y: 0.0
    z: 0.0
    w: 1.0
---
header: 
  seq: 720
  stamp: 
    secs: 1529583958
    nsecs: 864797251
  frame_id: "world"
pose: 
  position: 
    x: -0.598467946053
    y: 0.20703484118
    z: 0.0111958328635
  orientation: 
    x: 0.0
    y: 0.0
    z: 0.0
    w: 1.0
---
header: 
  seq: 721
  stamp: 
    secs: 1529583958
    nsecs: 885122557
  frame_id: "world"
pose: 
  position: 
    x: -0.59850025177
    y: 0.206928759813
    z: 0.0110708661377
  orientation: 
    x: 0.0
    y: 0.0
    z: 0.0
    w: 1.0
---
header: 
  seq: 722
  stamp: 
    secs: 1529583958
    nsecs: 905328138
  frame_id: "world"
pose: 
  position: 
    x: -0.59850025177
    y: 0.206928759813
    z: 0.0110708661377
  orientation: 
    x: 0.0
    y: 0.0
    z: 0.0
    w: 1.0
---
header: 
  seq: 723
  stamp: 
    secs: 1529583958
    nsecs: 924649264
  frame_id: "world"
pose: 
  position: 
    x: -0.598529338837
    y: 0.207001358271
    z: 0.011025428772
  orientation: 
    x: 0.0
    y: 0.0
    z: 0.0
    w: 1.0
---
header: 
  seq: 724
  stamp: 
    secs: 1529583958
    nsecs: 944888254
  frame_id: "world"
pose: 
  position: 
    x: -0.598495125771
    y: 0.20694449544
    z: 0.0110926553607
  orientation: 
    x: 0.0
    y: 0.0
    z: 0.0
    w: 1.0
---
header: 
  seq: 725
  stamp: 
    secs: 1529583958
    nsecs: 965079328
  frame_id: "world"
pose: 
  position: 
    x: -0.59849357605
    y: 0.206915795803
    z: 0.0110566597432
  orientation: 
    x: 0.0
    y: 0.0
    z: 0.0
    w: 1.0
---
header: 
  seq: 726
  stamp: 
    secs: 1529583958
    nsecs: 985262737
  frame_id: "world"
pose: 
  position: 
    x: -0.598508238792
    y: 0.206967487931
    z: 0.0111116953194
  orientation: 
    x: 0.0
    y: 0.0
    z: 0.0
    w: 1.0
---
header: 
  seq: 727
  stamp: 
    secs: 1529583959
    nsecs:   4447280
  frame_id: "world"
pose: 
  position: 
    x: -0.59845995903
    y: 0.207046940923
    z: 0.0111339427531
  orientation: 
    x: 0.0
    y: 0.0
    z: 0.0
    w: 1.0
---
header: 
  seq: 728
  stamp: 
    secs: 1529583959
    nsecs:  24623041
  frame_id: "world"
pose: 
  position: 
    x: -0.598540186882
    y: 0.207007989287
    z: 0.0110357282683
  orientation: 
    x: 0.0
    y: 0.0
    z: 0.0
    w: 1.0
---
header: 
  seq: 729
  stamp: 
    secs: 1529583959
    nsecs:  44844260
  frame_id: "world"
pose: 
  position: 
    x: -0.598540067673
    y: 0.207022070885
    z: 0.0110465018079
  orientation: 
    x: 0.0
    y: 0.0
    z: 0.0
    w: 1.0
---
header: 
  seq: 730
  stamp: 
    secs: 1529583959
    nsecs:  65080559
  frame_id: "world"
pose: 
  position: 
    x: -0.598496794701
    y: 0.206939741969
    z: 0.011070728302
  orientation: 
    x: 0.0
    y: 0.0
    z: 0.0
    w: 1.0
---
header: 
  seq: 731
  stamp: 
    secs: 1529583959
    nsecs:  85322189
  frame_id: "world"
pose: 
  position: 
    x: -0.598540067673
    y: 0.206973582506
    z: 0.0109977917746
  orientation: 
    x: 0.0
    y: 0.0
    z: 0.0
    w: 1.0
---
header: 
  seq: 732
  stamp: 
    secs: 1529583959
    nsecs: 104517952
  frame_id: "world"
pose: 
  position: 
    x: -0.59850358963
    y: 0.20696349442
    z: 0.0111110052094
  orientation: 
    x: 0.0
    y: 0.0
    z: 0.0
    w: 1.0
---
header: 
  seq: 733
  stamp: 
    secs: 1529583959
    nsecs: 124710466
  frame_id: "world"
pose: 
  position: 
    x: -0.598521590233
    y: 0.206949353218
    z: 0.0111135877669
  orientation: 
    x: 0.0
    y: 0.0
    z: 0.0
    w: 1.0
---
header: 
  seq: 734
  stamp: 
    secs: 1529583959
    nsecs: 144914503
  frame_id: "world"
pose: 
  position: 
    x: -0.59849691391
    y: 0.206924572587
    z: 0.0110821686685
  orientation: 
    x: 0.0
    y: 0.0
    z: 0.0
    w: 1.0
---
header: 
  seq: 735
  stamp: 
    secs: 1529583959
    nsecs: 165109138
  frame_id: "world"
pose: 
  position: 
    x: -0.598523855209
    y: 0.206934630871
    z: 0.0111372508109
  orientation: 
    x: 0.0
    y: 0.0
    z: 0.0
    w: 1.0
---
header: 
  seq: 736
  stamp: 
    secs: 1529583959
    nsecs: 185328835
  frame_id: "world"
pose: 
  position: 
    x: -0.598523855209
    y: 0.206934630871
    z: 0.0111372508109
  orientation: 
    x: 0.0
    y: 0.0
    z: 0.0
    w: 1.0
---
header: 
  seq: 737
  stamp: 
    secs: 1529583959
    nsecs: 204547267
  frame_id: "world"
pose: 
  position: 
    x: -0.598523855209
    y: 0.206934630871
    z: 0.0111372508109
  orientation: 
    x: 0.0
    y: 0.0
    z: 0.0
    w: 1.0
---
header: 
  seq: 738
  stamp: 
    secs: 1529583959
    nsecs: 224768286
  frame_id: "world"
pose: 
  position: 
    x: -0.598504066467
    y: 0.206940695643
    z: 0.0111238732934
  orientation: 
    x: 0.0
    y: 0.0
    z: 0.0
    w: 1.0
---
header: 
  seq: 739
  stamp: 
    secs: 1529583959
    nsecs: 244934928
  frame_id: "world"
pose: 
  position: 
    x: -0.598533034325
    y: 0.206929847598
    z: 0.0111184865236
  orientation: 
    x: 0.0
    y: 0.0
    z: 0.0
    w: 1.0
---
header: 
  seq: 740
  stamp: 
    secs: 1529583959
    nsecs: 265230597
  frame_id: "world"
pose: 
  position: 
    x: -0.598538398743
    y: 0.206979244947
    z: 0.0110567146912
  orientation: 
    x: 0.0
    y: 0.0
    z: 0.0
    w: 1.0
---
header: 
  seq: 741
  stamp: 
    secs: 1529583959
    nsecs: 284660083
  frame_id: "world"
pose: 
  position: 
    x: -0.598521828651
    y: 0.206910729408
    z: 0.0111157540232
  orientation: 
    x: 0.0
    y: 0.0
    z: 0.0
    w: 1.0
---
header: 
  seq: 742
  stamp: 
    secs: 1529583959
    nsecs: 304861013
  frame_id: "world"
pose: 
  position: 
    x: -0.598488092422
    y: 0.206891924143
    z: 0.0111383125186
  orientation: 
    x: 0.0
    y: 0.0
    z: 0.0
    w: 1.0
---
header: 
  seq: 743
  stamp: 
    secs: 1529583959
    nsecs: 325429632
  frame_id: "world"
pose: 
  position: 
    x: -0.598509311676
    y: 0.206912517548
    z: 0.011098892428
  orientation: 
    x: 0.0
    y: 0.0
    z: 0.0
    w: 1.0
---
header: 
  seq: 744
  stamp: 
    secs: 1529583959
    nsecs: 344631815
  frame_id: "world"
pose: 
  position: 
    x: -0.598497509956
    y: 0.206924065948
    z: 0.0111190965399
  orientation: 
    x: 0.0
    y: 0.0
    z: 0.0
    w: 1.0
---
header: 
  seq: 745
  stamp: 
    secs: 1529583959
    nsecs: 364868146
  frame_id: "world"
pose: 
  position: 
    x: -0.59850871563
    y: 0.206936955452
    z: 0.0110769374296
  orientation: 
    x: 0.0
    y: 0.0
    z: 0.0
    w: 1.0
---
header: 
  seq: 746
  stamp: 
    secs: 1529583959
    nsecs: 385091833
  frame_id: "world"
pose: 
  position: 
    x: -0.59847176075
    y: 0.206998348236
    z: 0.0112163117155
  orientation: 
    x: 0.0
    y: 0.0
    z: 0.0
    w: 1.0
---
header: 
  seq: 747
  stamp: 
    secs: 1529583959
